[
  {
    "website": "http://www.cybersonics.org",
    "name": "Tohickon Glass & Tile/The Triagiano Foundation/Global Biocides Solutions LLC/Hubbell/Pleasant Valley Auto Care/Amplifier Research/Lutron Electronics, Inc/PHTool/Fred Beans Automotive/Stokes Manufacturing/Harro Hoflinger/Client Link&Palisades Hs",
    "locality": "Kintnersville",
    "rookie_year": 1997,
    "region": "Pennsylvania",
    "team_number": 103,
    "location": "Kintnersville, Pennsylvania 18930, USA",
    "key": "frc103",
    "country_name": "USA",
    "motto": "Vision. Pasion. Commitment",
    "nickname": "Cybersonics"
  },
  {
    "website": "http://www.cruzincomets.com",
    "name": "Lockheed Martin/One Point Inc./Abington Education Improvement Organization & Abington Heights Hs",
    "locality": "Clarks Summit",
    "rookie_year": 2003,
    "region": "Pennsylvania",
    "team_number": 1143,
    "location": "Clarks Summit, Pennsylvania 18411, USA",
    "key": "frc1143",
    "country_name": "USA",
    "motto": null,
    "nickname": "Cruzin' Comets"
  },
  {
    "website": "http://www.Team1218.org",
    "name": "Vulcan Spring/Metal Edge International/Boeing Company/TE Connectivity /Fabspeed Motorsport/ErvTech International/William A. Killian Hardware&Chestnut Hill Academy&Springside School",
    "locality": "Philadelphia",
    "rookie_year": 2003,
    "region": "Pennsylvania",
    "team_number": 1218,
    "location": "Philadelphia, Pennsylvania 19118, USA",
    "key": "frc1218",
    "country_name": "USA",
    "motto": "Building a better world, one robot at a time",
    "nickname": "Vulcan Robotics"
  },
  {
    "website": "http://www.team1257.org",
    "name": "TE Connectivity/Google/UTC/Picatinny Arsenal/Formlabs&Union Cty Voc Tech",
    "locality": "Scotch Plains",
    "rookie_year": 2004,
    "region": "New Jersey",
    "team_number": 1257,
    "location": "Scotch Plains, New Jersey 07076, USA",
    "key": "frc1257",
    "country_name": "USA",
    "motto": null,
    "nickname": "Parallel Universe"
  },
  {
    "website": "http://team1647.com/",
    "name": "Lockheed Martin/Lenape Regional High School District/ShopRite of Medford/Shamong Manufacturing/Jemco-Erectors, Inc./PreCast Management/Compex Corporation/Radwell International, Inc./CSC/Brand Muscle Corporation/All State Insurance-Chaz Clancy/MTG Services, Inc./Harriett's Energy Solutions/Seneca Renaissance/Whole Foods Market & Seneca High School & Shawnee High School",
    "locality": "Vincentown",
    "rookie_year": 2005,
    "region": "New Jersey",
    "team_number": 1647,
    "location": "Vincentown, New Jersey 08088, USA",
    "key": "frc1647",
    "country_name": "USA",
    "motto": " ",
    "nickname": "Iron Devils"
  },
  {
    "website": "http://robotics1791.bappy.com/index.html",
    "name": "Nick's Pizzaria/FIRST Robotics - Anonymous Sponsor/Clayton Public Schools&Clayton High",
    "locality": "Clayton",
    "rookie_year": 2006,
    "region": "New Jersey",
    "team_number": 1791,
    "location": "Clayton, New Jersey 08312, USA",
    "key": "frc1791",
    "country_name": "USA",
    "motto": null,
    "nickname": "T.O.P. Hatters"
  },
  {
    "website": "http://frc1807.com",
    "name": "Bristol Myers Squibb/United Technologies Aerospace Systems/Gaum Incorporated/Upper Freehold Regional School District Board of Education&Allentown High",
    "locality": "Allentown",
    "rookie_year": 2006,
    "region": "New Jersey",
    "team_number": 1807,
    "location": "Allentown, New Jersey 08501, USA",
    "key": "frc1807",
    "country_name": "USA",
    "motto": "One goal, one ambition, multiple minds",
    "nickname": "Redbird Robotics"
  },
  {
    "website": "http://www.firstinspires.org/",
    "name": "the Episcopal Academy",
    "locality": "Newtown Square",
    "rookie_year": 2007,
    "region": "Pennsylvania",
    "team_number": 2095,
    "location": "Newtown Square, Pennsylvania 19073, USA",
    "key": "frc2095",
    "country_name": "USA",
    "motto": null,
    "nickname": "Direct Current"
  },
  {
    "website": "http://steinertrobotics.net",
    "name": "NDEP/Sun Chemical Corporation/Valspar/Lockheed Martin/Mercer County Improvement Authority/FMC Technologies/HTEA and NJEA/Bristol-Myers Squibb/Princeton Partners, Inc/Nav-Air & Hamilton East  Steinert",
    "locality": "Hamilton",
    "rookie_year": 2007,
    "region": "New Jersey",
    "team_number": 2180,
    "location": "Hamilton, New Jersey 08690, USA",
    "key": "frc2180",
    "country_name": "USA",
    "motto": "Nothing Can Hold Us Down!",
    "nickname": "Zero Gravity"
  },
  {
    "website": "http://www.firstinspires.org/",
    "name": "the Episcopal Academy",
    "locality": "Newtown Square",
    "rookie_year": 2007,
    "region": "Pennsylvania",
    "team_number": 2234,
    "location": "Newtown Square, Pennsylvania 19073, USA",
    "key": "frc2234",
    "country_name": "USA",
    "motto": "Esse Quam Videri",
    "nickname": "Alternating Current"
  },
  {
    "website": "http://www.chaos2458.com",
    "name": "Gill St Bernard S School",
    "locality": "Gladstone",
    "rookie_year": 2008,
    "region": "New Jersey",
    "team_number": 2458,
    "location": "Gladstone, New Jersey 07934, USA",
    "key": "frc2458",
    "country_name": "USA",
    "motto": "Roboticum mundus est",
    "nickname": "Team Chaos"
  },
  {
    "website": "http://www.Team2539.com",
    "name": "TE Connectivity/Comcast NBCUniversal/The Ames Companies/Hershey/N.S. Johnson Heating & Cooling&Palmyra Area Shs",
    "locality": "Palmyra",
    "rookie_year": 2008,
    "region": "Pennsylvania",
    "team_number": 2539,
    "location": "Palmyra, Pennsylvania 17078, USA",
    "key": "frc2539",
    "country_name": "USA",
    "motto": null,
    "nickname": "Krypton Cougars"
  },
  {
    "website": "http://www.normalityzero.com",
    "name": "TE Connectivity/The Hershey Company/Janville Roofing and Siding/Collective Intelligence/Mount Joy Wire/Kroah Remodeling  & Dauphin County Technical School",
    "locality": "Harrisburg",
    "rookie_year": 2008,
    "region": "Pennsylvania",
    "team_number": 2559,
    "location": "Harrisburg, Pennsylvania 17109, USA",
    "key": "frc2559",
    "country_name": "USA",
    "motto": "Nothing ventured, Nothing gained",
    "nickname": "Normality Zero"
  },
  {
    "website": "http://frc2590.org/",
    "name": "NAVAIR  /  DoDSTEM/CCL Label/New York Society of Cosmetic Chemists/Investors Foundation/Leidos/Robbinsville Education Association/Robbinsville Education Foundation/DesignTree/RAS Process Equipment/Gilbane Inc./SRI International/McGraw Hill Financial/NorthStar Vet&Robbinsville High School",
    "locality": "Robbinsville",
    "rookie_year": 2008,
    "region": "New Jersey",
    "team_number": 2590,
    "location": "Robbinsville, New Jersey 08691, USA",
    "key": "frc2590",
    "country_name": "USA",
    "motto": "We run our team like a high tech business.",
    "nickname": "Nemesis"
  },
  {
    "website": "http://www.robovikings.com",
    "name": "Lockheed Martin Corp/Signature Consulting Solutions & Archbishop Wood High School",
    "locality": "Warminster ",
    "rookie_year": 2008,
    "region": "Pennsylvania",
    "team_number": 2607,
    "location": "Warminster , Pennsylvania 18974, USA",
    "key": "frc2607",
    "country_name": "USA",
    "motto": "Purveyors of Gracious Professionalism",
    "nickname": "The Fighting RoboVikings"
  },
  {
    "website": "http://www.team304.com",
    "name": "NRG Energy, Inc. &Washington George Hs",
    "locality": "Philadelphia",
    "rookie_year": 1999,
    "region": "Pennsylvania",
    "team_number": 304,
    "location": "Philadelphia, Pennsylvania 19116, USA",
    "key": "frc304",
    "country_name": "USA",
    "motto": "Shoot for FIRST!",
    "nickname": "GWHS Robo Griffins"
  },
  {
    "website": "http://www.team341.com/",
    "name": "DOW Chemical / Comcast / The Boeing Company / BAE Systems / Lockheed Martin / Cobham Defense Electronics / Janssen Biotech Inc. / Johnson & Johnson / Society of Women Engineers / D.i.D. Agency / Blue Bell Technologies / Denney Electric Supply & Wissahickon Shs",
    "locality": "Ambler",
    "rookie_year": 2000,
    "region": "Pennsylvania",
    "team_number": 341,
    "location": "Ambler, Pennsylvania 19002, USA",
    "key": "frc341",
    "country_name": "USA",
    "motto": "We Build People",
    "nickname": "Miss Daisy"
  },
  {
    "website": "http://frc3929.org/",
    "name": "Bentley Systems/Comcast Corporation/2017 FRC Hardship Grant/Amazon&Masterman Julia R Sec Sch",
    "locality": "Philadelphia",
    "rookie_year": 2012,
    "region": "Pennsylvania",
    "team_number": 3929,
    "location": "Philadelphia, Pennsylvania 19130, USA",
    "key": "frc3929",
    "country_name": "USA",
    "motto": "Excellence. No Excuses.",
    "nickname": "Atomic Dragons"
  },
  {
    "website": "http://robotics.mcdevitths.org/",
    "name": "Comcast and NBCUniversal/Lockheed Martin/Arcadia University/PKB Engineering/Navmar Applied Sciences/McDevitt Alumni Association & Bishop Mcdevitt High School",
    "locality": "Wyncote",
    "rookie_year": 2012,
    "region": "Pennsylvania",
    "team_number": 3974,
    "location": "Wyncote, Pennsylvania 19095, USA",
    "key": "frc3974",
    "country_name": "USA",
    "motto": "Safety First / GP Second",
    "nickname": "E=mCD"
  },
  {
    "website": "http://www.423robotics.org",
    "name": "Cheltenham School District/Lockheed Martin&Cheltenham Hs",
    "locality": "Wyncote",
    "rookie_year": 2000,
    "region": "Pennsylvania",
    "team_number": 423,
    "location": "Wyncote, Pennsylvania 19095, USA",
    "key": "frc423",
    "country_name": "USA",
    "motto": "Simple machines, complex ideas",
    "nickname": "Simple Machines"
  },
  {
    "website": "http://waynecountyrobotics4285.org",
    "name": "Picatinny DoDSTEM/Wayne County Community Foundation/Picatinny Arsenal/Boyce Products Inc/Grimm Construction/The Alpine Meat & Wurst House/Waymart Masonic Lodge/Scarfalloto's Town House Dinner&Honesdale Hs&Western Wayne Hs",
    "locality": "Honesdale",
    "rookie_year": 2012,
    "region": "Pennsylvania",
    "team_number": 4285,
    "location": "Honesdale, Pennsylvania 18431, USA",
    "key": "frc4285",
    "country_name": "USA",
    "motto": "County wide knowledge",
    "nickname": "Camo-Bots"
  },
  {
    "website": "http://www.firstinspires.org/",
    "name": "Dow&Abington Friends School",
    "locality": "Jenkintown",
    "rookie_year": 2012,
    "region": "Pennsylvania",
    "team_number": 4373,
    "location": "Jenkintown, Pennsylvania 19046, USA",
    "key": "frc4373",
    "country_name": "USA",
    "motto": null,
    "nickname": "RooBotics"
  },
  {
    "website": "http://facebook.com/4454ArtisinalRocketeers",
    "name": "The Franklin Institute / The Boeing Company / NDEP / Braskem & Science Leadership Academy",
    "locality": "Philadelphia",
    "rookie_year": 2013,
    "region": "Pennsylvania",
    "team_number": 4454,
    "location": "Philadelphia, Pennsylvania 19103, USA",
    "key": "frc4454",
    "country_name": "USA",
    "motto": "Fail Fast, Fail Often, Fail Forward",
    "nickname": "Artisan Rockets"
  },
  {
    "website": "http://www.mhsfirst.org",
    "name": "Lockheed Martin/OPEX Corporation/ASRC Federal Mission Solutions/Comcast NBCUniversal&Moorestown High",
    "locality": "Moorestown",
    "rookie_year": 2014,
    "region": "New Jersey",
    "team_number": 5113,
    "location": "Moorestown, New Jersey 08057, USA",
    "key": "frc5113",
    "country_name": "USA",
    "motto": "When life gives you lemons, don't just make lemonade.",
    "nickname": "Combustible Lemons"
  },
  {
    "website": "https://www.lschs.org/clubs-activities/robotics",
    "name": "Aegis Industrial Software Corporation/Strictly Residential Services /Fitzpatrick Funeral Home/Treasured Signs/Lockheed Martin/The Boeing Company&La Salle College High School",
    "locality": "Wyndmoor",
    "rookie_year": 2014,
    "region": "Pennsylvania",
    "team_number": 5181,
    "location": "Wyndmoor, Pennsylvania 19038, USA",
    "key": "frc5181",
    "country_name": "USA",
    "motto": "Don't let perfect be the enemy of good.",
    "nickname": "La Salle Robotics"
  },
  {
    "website": "http://team5401.org/",
    "name": "The Boeing Company/Pennsylvania Steel/Coren Metal Inc./Village Catering/Old Skillz Graffik Garmentz/Tech Cycle Performance Products&Bensalem Twp Hs",
    "locality": "Bensalem",
    "rookie_year": 2015,
    "region": "Pennsylvania",
    "team_number": 5401,
    "location": "Bensalem, Pennsylvania 19020, USA",
    "key": "frc5401",
    "country_name": "USA",
    "motto": null,
    "nickname": "Fightin' Robotic Owls"
  },
  {
    "website": "http://www.FRC5404.org",
    "name": "Philadelphia Scientific/Vaughan/New Age Industries/Boeing/Crown Metal  & North Montco Tech Career Center & North Penn Shs",
    "locality": "Lansdale",
    "rookie_year": 2015,
    "region": "Pennsylvania",
    "team_number": 5404,
    "location": "Lansdale, Pennsylvania 19446, USA",
    "key": "frc5404",
    "country_name": "USA",
    "motto": "Creativity and Inspiration",
    "nickname": "Gearaffes"
  },
  {
    "website": "http://sjrobotics.com",
    "name": "Cumberland County College/SteamWorks Makerspace - City of Bridgeton/PSE&G/Walmart/Shiloh Borough/Dunkin Donuts&South Jersey Robotics - Bridgeton",
    "locality": "Bridgeton",
    "rookie_year": 2015,
    "region": "New Jersey",
    "team_number": 5420,
    "location": "Bridgeton, New Jersey 08302, USA",
    "key": "frc5420",
    "country_name": "USA",
    "motto": null,
    "nickname": "Velocity"
  },
  {
    "website": "http://www.firstinspires.org/",
    "name": "Robotech Educational Services Inc. & Burlington Twp High",
    "locality": "Burlington",
    "rookie_year": 2015,
    "region": "New Jersey",
    "team_number": 5457,
    "location": "Burlington, New Jersey 08016, USA",
    "key": "frc5457",
    "country_name": "USA",
    "motto": null,
    "nickname": "Falcobots"
  },
  {
    "website": "http://www.firstinspires.org/",
    "name": "Moravian Academy",
    "locality": "Bethlehem",
    "rookie_year": 2015,
    "region": "Pennsylvania",
    "team_number": 5490,
    "location": "Bethlehem, Pennsylvania 18020, USA",
    "key": "frc5490",
    "country_name": "USA",
    "motto": null,
    "nickname": "The Dark Byte"
  },
  {
    "website": "https://trentoncatholic.org/robotics",
    "name": "Lockheed Martin /2015 FRC Rookie Grant/Picatinny Arsenal/Mission Solutions LLC/Tuchman Foundation&Trenton Catholic School Upper School",
    "locality": "Trenton",
    "rookie_year": 2015,
    "region": "New Jersey",
    "team_number": 5684,
    "location": "Trenton, New Jersey 08610, USA",
    "key": "frc5684",
    "country_name": "USA",
    "motto": null,
    "nickname": "Iron Mechs"
  },
  {
    "website": "http://www.peddie.org/Page/Academics/Digital-Fabrication-Laboratory/Peddie-Robotics",
    "name": "Versum Materials/ClearBridge Investments/NASA/Boeing/Allentown Inc/MultiMix/Updata Partners/HSBC&Peddie School",
    "locality": "Hightstown",
    "rookie_year": 2016,
    "region": "New Jersey",
    "team_number": 5895,
    "location": "Hightstown, New Jersey 08520, USA",
    "key": "frc5895",
    "country_name": "USA",
    "motto": "Finimus Pariter Renovamusque Labores",
    "nickname": "Peddie School Robotics"
  },
  {
    "website": null,
    "name": "STEM Academy at Showalter & STEM Academy at Showalter",
    "locality": "Chester",
    "rookie_year": 2017,
    "region": "Pennsylvania",
    "team_number": 6667,
    "location": "Chester, Pennsylvania 19013, USA",
    "key": "frc6667",
    "country_name": "USA",
    "motto": null,
    "nickname": "STEM Clippers"
  },
  {
    "website": "http://www.team708.org/",
    "name": "Lockheed Martin/Hatboro-Horsham Education Foundation&Hatboro-Horsham Shs",
    "locality": "Horsham",
    "rookie_year": 2001,
    "region": "Pennsylvania",
    "team_number": 708,
    "location": "Horsham, Pennsylvania 19044, USA",
    "key": "frc708",
    "country_name": "USA",
    "motto": null,
    "nickname": "Hatters Robotics"
  },
  {
    "website": "http://robotics.agnesirwin.org",
    "name": "The Boeing Company/Glaxo-Smith-Kline&Agnes Irwin School",
    "locality": "Bryn Mawr",
    "rookie_year": 2001,
    "region": "Pennsylvania",
    "team_number": 709,
    "location": "Bryn Mawr, Pennsylvania 19010, USA",
    "key": "frc709",
    "country_name": "USA",
    "motto": "Girls are the future of techology",
    "nickname": "Femme Tech Fatale"
  },
  {
    "website": "http://www.rvr87.com/",
    "name": "Lockheed Martin/COMCAST-NBC Universal/DoDSTEM/CPS Metals/Rita's Italian Ice/AndyMark/Chick-Fil-A&Rancocas Valley Reg H",
    "locality": "Mount Holly",
    "rookie_year": 1997,
    "region": "New Jersey",
    "team_number": 87,
    "location": "Mount Holly, New Jersey 08060, USA",
    "key": "frc87",
    "country_name": "USA",
    "motto": "\"FIRST you go to Robotics, then you can go ANYWHERE!\"",
    "nickname": "Red Devils"
  }
]